[
  {
    "nom": "Denkikan",
    "pays": "Japon",
    "ville": "Tokyo",
    "annee": 1903,
    "desc": "Le Denkikan est la première salle de cinéma au Japon. À l'origine, le bâtiment a été construit dans le quartier des théâtres de l'arrondissement Asakusa de Tokyo afin de présenter des spectacles mettant en vedette l'électricité (« denki » en japonais). Il a été ensuite transformé en une salle de cinéma en octobre 1903 par la Yoshizawa Shōten, la société cinématographique la plus prospère à l'époque.",
    "lat": 35.682839,
    "long": 139.759455
  },
  {
    "nom": "Wintergarden Theatre",
    "pays": "Australie",
    "ville": "Sydney",
    "annee": 1929,
    "desc": "Le 10 juin 1929, la première projection publique d'un « talkie » (film animé avec son synchrone) dans un cinéma de la banlieue de Sydney a eu lieu au Wintergarden Theatre de Rose Bay. L'événement était la première démonstration publique du système audio australien Raycophone et a contribué à ouvrir la voie à l'adoption rapide d'une nouvelle technologie par l'industrie cinématographique dans le secteur suburbain et régional.",
    "lat": -33.865143,
    "long": 151.2099
  },
  {
    "nom": "Cinéma du Panthéon",
    "pays": "France",
    "ville": "Paris",
    "annee": 1907,
    "desc": "Le cinéma du Panthéon est une salle de cinéma indépendante d'Art et Essai située dans le quartier de la Sorbonne du 5e arrondissement de Paris, près de la place du Panthéon de laquelle il tient son nom. Ouvert en 1907, il s'agit de l'un des cinémas, encore en activité, les plus anciens de Paris.",
    "lat": 48.856613,
    "long": 2.352222
  },
  {
    "nom": "Eden Théâtre",
    "pays": "France",
    "ville": "La Ciotat",
    "annee": 1889,
    "desc": "L’Eden Théâtre est un cinéma français situé à La Ciotat, dans le département des Bouches-du-Rhône, inauguré comme théâtre le 15 juin 1889. La date du 21 mars 1899 est reconnue pour être celle de la première séance payante de cinéma à l’Eden Théâtre. L’Eden Théâtre est aujourd'hui la plus ancienne salle de cinéma en activité dans le monde, inscrite au Guinness World Records avec une ancienneté de 122 ans et 102 jours au 1er juillet 2021.",
    "lat": 43.173227,
    "long": 5.608155
  },
  {
    "nom": "Scala Cinema",
    "pays": "Thailand",
    "ville": "Bangkok",
    "annee": 1969,
    "desc": " Le Scala a ouvert ses portes le 31 décembre 1969 avec la projection du film The Undefeated (1969), un western américain avec John Wayne et Rock Hudson. Il a fermé ses portes le 5 juillet 2020, présentant, comme dernier film, Cinema Paradiso. Le Scala, qualifié de 'la meilleure salle de cinéma restante en Asie du Sud-Est', était le dernier cinéma indépendant à Bangkok, réduisant ainsi le nombre d'environ 140 salles de cinéma dans les années 1950 et 1960.",
    "lat": 13.756331,
    "long": 100.501762
  },
  {
    "nom": "Capitol Cinema",
    "pays": "Inde",
    "ville": "Mumbai",
    "annee": 1928,
    "desc": "Le Capitol Cinema est l'un des plus anciens cinémas de Mumbai. C'est une structure victorienne classée au patrimoine de grade II construite en 1879. À l'origine, il s'agissait d'un théâtre dédié aux arts de la scène, connu sous le nom de Tivoli, mais il a été renommé Capitol en 1928 lors de sa conversion en cinéma. Avant son changement de nom pour Capitol, il était connu sous le nom de Gaiety Theatre.",
    "lat": 19.07609,
    "long": 72.877426
  },
  {
    "nom": "Kino Pionier",
    "pays": "Pologne",
    "ville": "Szczecin",
    "annee": 1907,
    "desc": "Pionier 1909 devenu Pionier 1907 a reçu le titre de cinéma le plus ancien encore en activité. Le Livre Guinness des Records l'a confirmé en 2005. Cependant, le Cinéma Pionier a cessé d'être le pionnier officiel en 2021 lorsqu'il s'est avéré que le Théâtre Eden de La Ciotat, près de Marseille, remplissait déjà ces conditions en 1899.",
    "lat": 53.428543,
    "long": 14.552812
  },
  {
    "nom": "Regent Street Cinema",
    "pays": "Royaume-Uni",
    "ville": "Londres",
    "annee": 1848,
    "desc": "Le Regent Street Cinema est un cinéma indépendant britannique situé sur Regent Street, à Londres. Ouvert en 1848 et considéré comme 'le berceau du cinéma britannique', le cinéma a présenté le premier film en mouvement montré au Royaume-Uni. Aujourd'hui, le cinéma projette à la fois des films indépendants et des films de studio en plein cœur de Londres.",
    "lat": 51.507351,
    "long": -0.127758
  },
  {
    "nom": "Moviemento",
    "pays": "Allemagne",
    "ville": "Berlin-Kreuzberg",
    "annee": 1907,
    "desc": "Le Moviemento est un cinéma basé à Berlin, situé à Kottbusser Damm dans le quartier de Berlin-Kreuzberg. Il a ouvert ses portes en 1907 et est le plus ancien cinéma encore en activité en Allemagne. La caractéristique unique de l'architecture d'origine était les deux salles de cinéma adjacentes l'une à l'autre avec un angle de 45 degrés. Grâce à une construction de miroirs spéciale, les deux salles pouvaient projeter des films en même temps.",
    "lat": 52.520008,
    "long": 13.404954
  },
  {
    "nom": "Teatro Dante",
    "pays": "Italie",
    "ville": "Tuscany",
    "annee": 1836,
    "desc": "Le Teatro Dante est un théâtre et cinéma italien inauguré le 1er septembre 1836 et était à l'origine connu sous le nom de Théâtre Royal Dante (Regio Teatro Dante). Le bâtiment a commencé comme un simple théâtre pour le peuple, aujourd'hui c'est aussi une salle de cinéma, ce qui n'empêche pas une saison théâtrale avec des comédies, des opérettes et des concerts de bon niveau.",
    "lat": 43.76956,
    "long": 11.255814
  },
  {
    "nom": "Théâtre du Cinématographe",
    "pays": "Belgique",
    "ville": "Bruxelles",
    "annee": 1905,
    "desc": "",
    "lat": 50.850346,
    "long": 4.351721
  },
  {
    "nom": "Alhambra",
    "pays": "Suisse",
    "ville": "Genève",
    "annee": 1920,
    "desc": "",
    "lat": 46.204391,
    "long": 6.143158
  },
  {
    "nom": "Cine Doré",
    "pays": "Espagne",
    "ville": "Madrid",
    "annee": 1912,
    "desc": "",
    "lat": 40.416775,
    "long": -3.70379
  },
  {
    "nom": "Condes",
    "pays": "Portugal",
    "ville": "Lisbonne",
    "annee": 1915,
    "desc": "",
    "lat": 38.722252,
    "long": -9.139337
  },
  {
    "nom": "Eden Cinematografo",
    "pays": "Mexique",
    "ville": "México",
    "annee": 1896,
    "desc": "",
    "lat": 19.432608,
    "long": -99.133209
  },
  {
    "nom": "Edisonia Hall",
    "pays": "Canada",
    "ville": "Toronto",
    "annee": 1896,
    "desc": "",
    "lat": 43.65107,
    "long": -79.347015
  },
  {
    "nom": "Gran Salon Olympia",
    "pays": "Colombie",
    "ville": "Bogota",
    "annee": 1897,
    "desc": "",
    "lat": 4.60971,
    "long": -74.081749
  },
  {
    "nom": "Salão de Novidades Paris",
    "pays": "Brésil",
    "ville": "Rio de Janeiro",
    "annee": 1896,
    "desc": "",
    "lat": -22.906847,
    "long": -43.172897
  },
  {
    "nom": "Yuanmingyuan",
    "pays": "Chine",
    "ville": "Pékin (Beijing)",
    "annee": 1902,
    "desc": "",
    "lat": 39.9042,
    "long": 116.407396
  },
  {
    "nom": "Majestic",
    "pays": "Indonésie",
    "ville": "Jakarta",
    "annee": 1910,
    "desc": "",
    "lat": -6.208763,
    "long": 106.845599
  },
  {
    "nom": "Dansungsa",
    "pays": "Corée du Sud",
    "ville": "Séoul",
    "annee": 1903,
    "desc": "",
    "lat": 37.566535,
    "long": 126.977969
  },
  {
    "nom": "Auckland Opera House",
    "pays": "Nouvelle-Zélande",
    "ville": "Auckland",
    "annee": 1896,
    "desc": "",
    "lat": -36.848461,
    "long": 174.763336
  },
  {
    "nom": "Salon Pajou",
    "pays": "Russie",
    "ville": "Saint-Pétersbourg",
    "annee": 1896,
    "desc": "",
    "lat": 59.93428,
    "long": 30.335099
  },
  {
    "nom": "Olympion",
    "pays": "Grèce",
    "ville": "Athènes",
    "annee": 1907,
    "desc": "",
    "lat": 37.98381,
    "long": 23.727539
  },
  {
    "nom": "Teatro Odéon",
    "pays": "Argentine",
    "ville": "Buenos Aires",
    "annee": 1896,
    "desc": "",
    "lat": -34.611778,
    "long": -58.417306
  },
  {
    "nom": "Sark Cinema",
    "pays": "Turquie",
    "ville": "Istanbul",
    "annee": 1896,
    "desc": "",
    "lat": 41.008238,
    "long": 28.978359
  },
  {
    "nom": "Azbekiya Garden",
    "pays": "Egypte",
    "ville": "Caire",
    "annee": 1896,
    "desc": "",
    "lat": 30.04442,
    "long": 31.235712
  },
  {
    "nom": "Palais Miramar",
    "pays": "Maroc",
    "ville": "Casablanca",
    "annee": 1907,
    "desc": "",
    "lat": 34.020882,
    "long": -6.84165
  },
  {
    "nom": "Svenska Biografteatern",
    "pays": "Suède",
    "ville": "Stockholm",
    "annee": 1896,
    "desc": "",
    "lat": 59.329323,
    "long": 18.068581
  },
  {
    "nom": "Bioskop",
    "pays": "Danemark",
    "ville": "Copenhague",
    "annee": 1904,
    "desc": "",
    "lat": 55.676098,
    "long": 12.568337
  },
  {
    "nom": "Colosseum",
    "pays": "Norvège",
    "ville": "Oslo",
    "annee": 1905,
    "desc": "",
    "lat": 59.913869,
    "long": 10.752245
  },
  {
    "nom": "Vitascope Hall",
    "pays": "Etats-Unis",
    "ville": "Nouvelle-Orléans",
    "annee": 1896,
    "desc": "",
    "lat": 29.951065,
    "long": -90.071533
  },
  {
    "nom": "Cinéma du Boulevard",
    "pays": "Sénégal",
    "ville": "Dakar",
    "annee": 1913,
    "desc": "",
    "lat": 14.692778,
    "long": -17.446667
  },
  {
    "nom": "Cinéma Omnia",
    "pays": "Tunisie",
    "ville": "Tunis",
    "annee": 1907,
    "desc": "",
    "lat": 34.746611,
    "long": 10.761329
  },
  {
    "nom": "Cinéma Eden",
    "pays": "Algérie",
    "ville": "Oran",
    "annee": 1907,
    "desc": "",
    "lat": 35.691405,
    "long": -0.641831
  },
  {
    "nom": "Cinéma Rivoli",
    "pays": "Algérie (Kabylie)",
    "ville": "Tizi Ouzou",
    "annee": 1927,
    "desc": "",
    "lat": 36.715697,
    "long": 4.051625
  },
  {
    "nom": "Hollywood Egyptian Theatre",
    "pays": "Etats-Unis (Hollywood)",
    "ville": "Los Angeles",
    "annee": 1922,
    "desc": "",
    "lat": 34.052235,
    "long": -118.243683
  },
  {
    "nom": "Qajar Dynasty Palace",
    "pays": "Iran",
    "ville": "Téhéran",
    "annee": 1900,
    "desc": "",
    "lat": 35.689487,
    "long": 51.394771
  },
  {
    "nom": "Coliseum Theatre",
    "pays": "Malaisie",
    "ville": "Kuala Lumpur",
    "annee": 1921,
    "desc": "",
    "lat": 3.139003,
    "long": 101.686855
  },
  {
    "nom": "Cathay Building",
    "pays": "Singapour",
    "ville": "Singapour",
    "annee": 1939,
    "desc": "",
    "lat": 1.352083,
    "long": 103.819836
  },
  {
    "nom": "Hanoi Cinema",
    "pays": "Vietnam",
    "ville": "Hanoi",
    "annee": 1911,
    "desc": "",
    "lat": 21.028521,
    "long": 105.854204
  },
  {
    "nom": "Capitol Cinema",
    "pays": "Pakistan",
    "ville": "Karachi",
    "annee": 1932,
    "desc": "",
    "lat": 24.860735,
    "long": 67.001137
  },
  {
    "nom": "Palm Court",
    "pays": "Nigeria",
    "ville": "Lagos",
    "annee": 1903,
    "desc": "",
    "lat": 6.524379,
    "long": 3.379206
  },
  {
    "nom": "Regal Cinema",
    "pays": "Ghana",
    "ville": "Accra",
    "annee": 1932,
    "desc": "",
    "lat": 5.560014,
    "long": -0.205744
  },
  {
    "nom": "Vitascope Theatre",
    "pays": "Afrique du Sud",
    "ville": "Cap",
    "annee": 1896,
    "desc": "",
    "lat": -33.92487,
    "long": 18.424055
  },
  {
    "nom": "Kenya Cinema",
    "pays": "Kenya",
    "ville": "Nairobi",
    "annee": 1908,
    "desc": "",
    "lat": -1.286389,
    "long": 36.817223
  },
  {
    "nom": "Imperial Cinema",
    "pays": "Ethiopie",
    "ville": "Addis-Abeba",
    "annee": 1935,
    "desc": "",
    "lat": 9.145,
    "long": 38.75
  },
  {
    "nom": "Edison Theatre",
    "pays": "Cuba",
    "ville": "La Havane",
    "annee": 1900,
    "desc": "",
    "lat": 23.113592,
    "long": -82.366592
  },
  {
    "nom": "Jamaica Theatre",
    "pays": "Jamaïque",
    "ville": "Kingston",
    "annee": 1907,
    "desc": "",
    "lat": 17.970431,
    "long": -76.79321
  },
  {
    "nom": "Cinéma Royal",
    "pays": "Réunion",
    "ville": "Saint-Denis",
    "annee": 1912,
    "desc": "",
    "lat": -20.878407,
    "long": 55.448328
  },
  {
    "nom": "Cinéma Olympia",
    "pays": "Chypre",
    "ville": "Nicosie",
    "annee": 1930,
    "desc": "",
    "lat": 35.185565,
    "long": 33.382391
  },
  {
    "nom": "Eden Cinema",
    "pays": "Tahiti",
    "ville": "Papeete",
    "annee": 1935,
    "desc": "",
    "lat": -17.535,
    "long": -149.569722
  },
  {
    "nom": "Cinéma Rex",
    "pays": "Madagascar",
    "ville": "Antananarivo",
    "annee": 1924,
    "desc": "",
    "lat": -18.87919,
    "long": 47.507905
  },
  {
    "nom": "Bijou Theater",
    "pays": "Hawaï",
    "ville": "Honolulu",
    "annee": 1906,
    "desc": "",
    "lat": 21.306944,
    "long": -157.858333
  },
  {
    "nom": "Cine Ateneo",
    "pays": "Philippines",
    "ville": "Manille",
    "annee": 1901,
    "desc": "",
    "lat": 14.599512,
    "long": 120.984222
  },
  {
    "nom": "Rangoon Cinema",
    "pays": "Birmanie",
    "ville": "Rangoun",
    "annee": 1922,
    "desc": "",
    "lat": 16.866069,
    "long": 96.195132
  },
  {
    "nom": "Cinema Capitole",
    "pays": "Laos",
    "ville": "Vientiane",
    "annee": 1954,
    "desc": "",
    "lat": 17.975706,
    "long": 102.633104
  },
  {
    "nom": "Empire Cinema",
    "pays": "Brunei",
    "ville": "Bandar Seri Begawan",
    "annee": 1953,
    "desc": "",
    "lat": 4.88573,
    "long": 114.931514
  },
  {
    "nom": "Salon Variedades",
    "pays": "Chili",
    "ville": "Santiago",
    "annee": 1898,
    "desc": "",
    "lat": -33.44889,
    "long": -70.669265
  },
  {
    "nom": "Cine Orrantia",
    "pays": "Pérou",
    "ville": "Lima",
    "annee": 1904,
    "desc": "",
    "lat": -12.046374,
    "long": -77.042793
  },
  {
    "nom": "Cinematografo Americano",
    "pays": "Venezuela",
    "ville": "Caracas",
    "annee": 1904,
    "desc": "",
    "lat": 10.48801,
    "long": -66.87919
  },
  {
    "nom": "Teatro Nacional",
    "pays": "Paraguay",
    "ville": "Asucion",
    "annee": 1900,
    "desc": "",
    "lat": -25.263739,
    "long": -57.575926
  },
  {
    "nom": "Teatro Variedades",
    "pays": "Equateur",
    "ville": "Quito",
    "annee": 1905,
    "desc": "",
    "lat": -0.229498,
    "long": -78.524272
  },
  {
    "nom": "Teatro Municipal",
    "pays": "Bolivie",
    "ville": "La Paz",
    "annee": 1905,
    "desc": "",
    "lat": -16.5,
    "long": -68.119293
  },
  {
    "nom": "Cine Lux",
    "pays": "Guatemala",
    "ville": "Guatemala city",
    "annee": 1906,
    "desc": "L'un des plus anciens cinémas de la capitale. Beaux espaces ouverts avec un design art déco espagnol. Autrefois théâtre et cinéma, aujourd'hui ouvert à diverses fins et abritant également le centre culturel espagnol.",
    "lat": 14.634915,
    "long": -90.506882
  },
  {
    "nom": "Teatro Presidente",
    "pays": "Salvador",
    "ville": "San Salvador",
    "annee": 1971,
    "desc": "Le Teatro Presidente a été inauguré dans l'après-midi du 1er décembre 1971, sous le commandement du président de la République du Salvador de l'époque, Fidel Sánchez Hernández, et de son cabinet gouvernemental. Il était initialement prévu pour servir de lieu à des événements gouvernementaux, tels que la passation du gouvernement, les réunions de l'Assemblée législative ou la formation des fonctionnaires. Cependant, à la fin des années 1970 et au cours des années 1980, elle servait de salle de cinéma et de théâtre",
    "lat": 13.69373,
    "long": -89.190791
  },
  {
    "nom": "Teatro Variedades",
    "pays": "Panama",
    "ville": "Panama City",
    "annee": 1905,
    "desc": "Le Teatro Variedades est un théâtre et une salle de cinéma situés dans la ville de Panama, déclarés monument historique du Panama.",
    "lat": 8.982379,
    "long": -79.51987
  }
]